{
  "locations": {
    "home": {
      "name": "집",
      "address": "경남 통영시 무전7길 135 한진로즈힐비치2차 201동 305호",
      "lat": 34.8544,
      "lng": 128.4333,
      "radius_m": 100
    },
    "office": {
      "name": "사무실",
      "address": "경남 통영시 도남로 195",
      "lat": 34.8347,
      "lng": 128.4289,
      "radius_m": 100
    },
    "warehouse": {
      "name": "창고",
      "address": "경남 통영시 용남면 논싯골길 90-43",
      "lat": 34.8712,
      "lng": 128.3891,
      "radius_m": 150
    },
    "신혜식당": {
      "name": "신혜식당",
      "address": "경남 통영시 도남동 390-2",
      "lat": 34.82923,
      "lng": 128.4252,
      "radius_m": 50,
      "note": "정식 8천원, 회사 월달결제"
    },
    "장인어른_밭일_돈부_마침": {
      "name": "장인어른 밭일 돈부 마침",
      "address": "",
      "lat": null,
      "lng": null,
      "radius_m": 50
    },
    "열방교회": {
      "name": "열방교회",
      "address": "",
      "lat": null,
      "lng": null,
      "radius_m": 50
    },
    "창고": {
      "name": "창고",
      "address": "",
      "lat": 34.88972,
      "lng": 128.451,
      "radius_m": 50
    },
    "johncage_당구장": {
      "name": "johnCage 당구장",
      "address": "",
      "lat": 34.86014,
      "lng": 128.42632,
      "radius_m": 50
    },
    "철수네밥상": {
      "name": "철수네밥상",
      "address": "",
      "lat": 34.88837,
      "lng": 128.4548,
      "radius_m": 50
    },
    "해피데이": {
      "name": "해피데이",
      "address": "",
      "lat": 34.88589,
      "lng": 128.41501,
      "radius_m": 50
    },
    "새터시락국": {
      "name": "새터시락국",
      "address": "",
      "lat": 34.8403,
      "lng": 128.41791,
      "radius_m": 50
    },
    "테스트": {
      "name": "테스트",
      "address": "",
      "lat": 34.86346,
      "lng": 128.42318,
      "radius_m": 50
    },
    "강구안_문화마당": {
      "name": "강구안 문화마당",
      "address": "",
      "lat": 34.84399,
      "lng": 128.4241,
      "radius_m": 50
    },
    "통영시_여성회관": {
      "name": "통영시 여성회관",
      "address": "",
      "lat": 34.87549,
      "lng": 128.41278,
      "radius_m": 50
    },
    "사무실": {
      "name": "사무실",
      "address": "",
      "lat": 34.85638,
      "lng": 128.42864,
      "radius_m": 50
    },
    "달라스치킨": {
      "name": "달라스치킨",
      "address": "",
      "lat": 34.82935,
      "lng": 128.42625,
      "radius_m": 50
    },
    "시민문화회관": {
      "name": "시민문화회관",
      "address": "",
      "lat": 34.84236,
      "lng": 128.42797,
      "radius_m": 50
    },
    "통영국제음악당": {
      "name": "통영국제음악당",
      "address": "",
      "lat": 34.82568,
      "lng": 128.43915,
      "radius_m": 50
    },
    "해든_회_(죽림)": {
      "name": "해든 회 (죽림)",
      "address": "",
      "lat": 34.88673,
      "lng": 128.41907,
      "radius_m": 50
    },
    "학림도": {
      "name": "학림도",
      "address": "",
      "lat": 34.74813,
      "lng": 128.40735,
      "radius_m": 50
    },
    "송정마을계곡": {
      "name": "송정마을계곡",
      "address": "",
      "lat": 35.33449,
      "lng": 127.83783,
      "radius_m": 50
    },
    "봉평삼계탕": {
      "name": "봉평삼계탕",
      "address": "",
      "lat": 34.83072,
      "lng": 128.41867,
      "radius_m": 50
    }
  },
  "events": {
    "arrive": "도착",
    "depart": "출발"
  }
}